{"type":"FeatureCollection","features":[{"type":"Feature","properties":{"marker-color":"#ff0000","marker-size":"medium","marker-symbol":"harbor","title":"Деревянная ладья","rule":"н и нн в суффиксах прилагательных"},"geometry":{"type":"Point","coordinates":[37.74338006973266,55.90760648313356]}},{"type":"Feature","properties":{"marker-color":"#ffff00","marker-size":"medium","marker-symbol":"water","title":"Памятник мытищинскому водопроводу","rule":"соединительная гласная в слове"},"geometry":{"type":"Point","coordinates":[37.72504448890686,55.916985411353245]}},{"type":"Feature","properties":{"marker-color":"#0000ff","marker-size":"medium","marker-symbol":"cafe","title":"Самовар (по мотивам картины В.Г. Перова \"Чаепитие в Мытищах\")","rule":"историзм"},"geometry":{"type":"Point","coordinates":[37.71108090877532,55.92199790066308]}},{"type":"Feature","properties":{"marker-color":"#ff8000","marker-size":"medium","marker-symbol":"city","title":"Памятник дворнику (Ты убрал за собой мусор?)","rule":"повторение возвратной частицы"},"geometry":{"type":"Point","coordinates":[37.733761668205254,55.91160246353702]}},{"type":"Feature","properties":{"marker-color":"#000000","marker-size":"medium","marker-symbol":"monument","title":"Памятник Николаю II","rule":"историческая личность (лингвокультурология))"},"geometry":{"type":"Point","coordinates":[37.689489126205444,55.89933057791544]}},{"type":"Feature","properties":{"marker-color":"#800080","marker-size":"medium","marker-symbol":"rail","title":"Памятник вагону метро","rule":"повторение лексики по теме \"Транспорт\""},"geometry":{"type":"Point","coordinates":[37.76503086090088,55.91152729840553]}},{"type":"Feature","properties":{"marker-color":"#c0c0c0","marker-size":"medium","marker-symbol":"airport","title":"Памятник «Подвигу Летчиков Мытищинского Аэроклуба»","rule":"повторение лексики по теме \"Аэропорт\""},"geometry":{"type":"Point","coordinates":[37.71479845046997,55.903432664437865]}},{"type":"Feature","properties":{"marker-color":"#80ff80","marker-size":"medium","marker-symbol":"theatre","title":"Мытищинский театр драмы и комедии «ФЭСТ»","rule":"повторение лексики по теме \"Театр\""},"geometry":{"type":"Point","coordinates":[37.73478627204895,55.90876713386806]}},{"type":"Feature","properties":{"marker-color":"#80ffff","marker-size":"medium","marker-symbol":"museum","title":"Мытищинский историко-художественный музей","rule":"история Мытищ (лингвокультурология)"},"geometry":{"type":"Point","coordinates":[37.7357679605484,55.91121160326208]}},{"type":"Feature","properties":{"marker-color":"#800000","marker-size":"medium","marker-symbol":"zoo","title":"Мытищинский музей охраны природы","rule":"повторение названий птиц и зверей"},"geometry":{"type":"Point","coordinates":[37.73634731769562,55.90859875145977]}},{"type":"Feature","properties":{"marker-color":""},"geometry":{"type":"LineString","coordinates":[[37.76504158973694,55.91154533805038],[37.743385434150696,55.90761249695745],[37.7363446354866,55.90860476512979],[37.73478627204895,55.90876863727914],[37.73576259613037,55.911214609894614],[37.733761668205254,55.91160847674126],[37.72505521774292,55.91698691444568],[37.71108627319336,55.921940790492386],[37.68954277038574,55.89942681951862],[37.71486282348633,55.90351686694872]]}}]}